{"lockers": [
    {"address": "Regent's Park\nLondon NW1 4HB\nUnited Kingdom", "id": "london-reg",
        "image": "https://lh3.googleusercontent.com/WTxWzt3AOcEMwoT2OonLTlc63pa4V-GsYbZg5Hu7rfe9ZioMaRurkxaQ5tOcuC9nZkCyh2IjQb-xMy4Tq8ISrHjfDHmzZXnExTjP",
        "lat": 51.53042, "lng": -0.14632, "distance-km": 1.81, "name": "Regent's Park", "capacity": 25, "occupancy": 22, "region": "europe"},
    {"address": "Olympic Park\nLondon E20 2ST\nUnited Kingdom", "id": "london-oly", "image": "https://lh3.googleusercontent.com/bLxZNCaDE2Fdj7woV_9JUJEUfUvTrhI57jHNEeW-OenTspzM21miwz1gGydzZ2Ke_vfRdkqdo4dyN2mJCntC2p4qvRUyipPWppAC9g", 
        "lat": 51.53795103466903, "lng": -0.01462309363907473, "distance-km": 8.40, "name": "QEOP", "capacity": 20, "occupancy": 15, "region": "europe"},
    {"address": "Battersea Park\nLondon SW11 4NJ\nUnited Kingdom", "id": "london-bat", "image": "https://lh3.googleusercontent.com/bLxZNCaDE2Fdj7woV_9JUJEUfUvTrhI57jHNEeW-OenTspzM21miwz1gGydzZ2Ke_vfRdkqdo4dyN2mJCntC2p4qvRUyipPWppAC9g", 
        "lat": 51.47823213989096, "lng" :-0.15893354744496418, "distance-km": 4.88, "name": "Battersea Park", "capacity": 20, "occupancy": 15, "region": "europe"},
    {"address": "Clapham Common\nLondon SW4 9DE\nUnited Kingdom", "id": "london-clap", "image": "https://lh3.googleusercontent.com/bLxZNCaDE2Fdj7woV_9JUJEUfUvTrhI57jHNEeW-OenTspzM21miwz1gGydzZ2Ke_vfRdkqdo4dyN2mJCntC2p4qvRUyipPWppAC9g",
        "lat": 51.458510253773575, "lng": -0.146787611073514, "distance-km": 7.01, "name": "Clapham Common", "capacity": 20, "occupancy": 15, "region": "europe"},
    {"address": "Brockwell Park\nLondon SE24 DNG\nUnited Kingdom", "id": "london-bro", "image": "https://lh3.googleusercontent.com/bLxZNCaDE2Fdj7woV_9JUJEUfUvTrhI57jHNEeW-OenTspzM21miwz1gGydzZ2Ke_vfRdkqdo4dyN2mJCntC2p4qvRUyipPWppAC9g",
        "lat": 51.451314745535285, "lng": -0.1054999765270844, "distance-km": 8.11, "name": "Brockwell Park", "capacity": 20, "occupancy": 15, "region": "europe"},
    {"address": "Crystal Palace Park\nLondon SE19 2GA\nUnited Kingdom", "id": "london-cpal", "image": "https://lh3.googleusercontent.com/bLxZNCaDE2Fdj7woV_9JUJEUfUvTrhI57jHNEeW-OenTspzM21miwz1gGydzZ2Ke_vfRdkqdo4dyN2mJCntC2p4qvRUyipPWppAC9g",
         "lat": 51.42287765372437, "lng": -0.06967969870031837, "distance-km": 12.06, "name": "Crystal Palace Park", "capacity": 20, "occupancy": 15, "region": "europe"},
    {"address": "Dulwich Park\nLondon SE21 7EB\nUnited Kingdom", "id": "london-dul", "image": "https://lh3.googleusercontent.com/bLxZNCaDE2Fdj7woV_9JUJEUfUvTrhI57jHNEeW-OenTspzM21miwz1gGydzZ2Ke_vfRdkqdo4dyN2mJCntC2p4qvRUyipPWppAC9g",
         "lat": 51.44588130441491, "lng": -0.07888661919255603, "distance-km": 9.56, "name": "Dulwich Park", "capacity": 20, "occupancy": 15, "region": "europe"},
    {"address": "Greenwich Park\nLondon SE10 8EJ\nUnited Kingdom", "id": "london-gre", "image": "https://lh3.googleusercontent.com/bLxZNCaDE2Fdj7woV_9JUJEUfUvTrhI57jHNEeW-OenTspzM21miwz1gGydzZ2Ke_vfRdkqdo4dyN2mJCntC2p4qvRUyipPWppAC9g",
         "lat": 51.475222934721096, "lng": 0.0003594859594831428, "distance-km": 10.98, "name": "Greenwich Park", "capacity": 20, "occupancy": 15, "region": "europe"},
    {"address": "Victoria Park\nLondon E3 5TB\nUnited Kingdom", "id": "london-vic", "image": "https://lh3.googleusercontent.com/bLxZNCaDE2Fdj7woV_9JUJEUfUvTrhI57jHNEeW-OenTspzM21miwz1gGydzZ2Ke_vfRdkqdo4dyN2mJCntC2p4qvRUyipPWppAC9g",
         "lat": 51.53712670918348, "lng": -0.03690827930775515, "distance-km": 6.72, "name": "Victoria Park", "capacity": 20, "occupancy": 15, "region": "europe"},
    {"address": "Hampstead Heath\nLondon NW3 7JP\nUnited Kingdom", "id": "london-ham", "image": "https://lh3.googleusercontent.com/32nlExbSrV5rJR9Qsqfkbckn6_yd-4QRaoSDmp9JLyaZxojfl9aH1LZSrSvcsT128AUzHqkEfMhTE2miDuOu7gj-7x3Ginqr4rgowg",
         "lat": 51.571789558099155, "lng":  -0.17168209990308544, "distance-km": 4.75, "name": "Hampstead Heath", "capacity": 20, "occupancy": 17, "region": "europe"}]}
